[
  {
    "id": 1,
    "aptName": "SK뷰센트럴",
    "address": "서울특별시 서초구 상계동 113",
    "buildYear": 2017,
    "households": 2995,
    "constructor": "DL이앤씨",
    "heatingType": "지역난방",
    "maxFloor": 43,
    "parkingCount": 3504,
    "latitude": 37.484503,
    "longitude": 127.012501
  },
  {
    "id": 2,
    "aptName": "센트레빌",
    "address": "서울특별시 영등포구 반포동 629",
    "buildYear": 2024,
    "households": 2579,
    "constructor": "현대건설",
    "heatingType": "중앙난방",
    "maxFloor": 44,
    "parkingCount": 4075,
    "latitude": 37.477323,
    "longitude": 126.962836
  },
  {
    "id": 3,
    "aptName": "래미안1단지",
    "address": "서울특별시 서초구 여의도동 212",
    "buildYear": 1998,
    "households": 3020,
    "constructor": "한화건설",
    "heatingType": "중앙난방",
    "maxFloor": 15,
    "parkingCount": 4137,
    "latitude": 37.555221,
    "longitude": 127.164274
  },
  {
    "id": 4,
    "aptName": "한신휴플러스리버뷰",
    "address": "서울특별시 송파구 창신동 96",
    "buildYear": 1997,
    "households": 1862,
    "constructor": "대우건설",
    "heatingType": "지역난방",
    "maxFloor": 28,
    "parkingCount": 2625,
    "latitude": 37.507559,
    "longitude": 126.984035
  },
  {
    "id": 5,
    "aptName": "센트레빌스퀘어",
    "address": "서울특별시 영등포구 성수동 731",
    "buildYear": 1999,
    "households": 349,
    "constructor": "현대건설",
    "heatingType": "개별난방",
    "maxFloor": 27,
    "parkingCount": 513,
    "latitude": 37.537869,
    "longitude": 126.897552
  },
  {
    "id": 6,
    "aptName": "한신휴플러스3단지",
    "address": "서울특별시 송파구 반포동 362",
    "buildYear": 2010,
    "households": 1385,
    "constructor": "현대건설",
    "heatingType": "개별난방",
    "maxFloor": 42,
    "parkingCount": 1551,
    "latitude": 37.433885,
    "longitude": 126.913295
  },
  {
    "id": 7,
    "aptName": "한신휴플러스3단지",
    "address": "서울특별시 마포구 여의도동 151",
    "buildYear": 2017,
    "households": 2873,
    "constructor": "롯데건설",
    "heatingType": "개별난방",
    "maxFloor": 40,
    "parkingCount": 4223,
    "latitude": 37.677841,
    "longitude": 126.848473
  },
  {
    "id": 8,
    "aptName": "롯데캐슬3단지",
    "address": "서울특별시 용산구 반포동 248",
    "buildYear": 1997,
    "households": 1396,
    "constructor": "HDC현대산업개발",
    "heatingType": "중앙난방",
    "maxFloor": 43,
    "parkingCount": 1885,
    "latitude": 37.44539,
    "longitude": 127.057136
  },
  {
    "id": 9,
    "aptName": "래미안센트럴",
    "address": "서울특별시 종로구 잠실동 520",
    "buildYear": 2013,
    "households": 2168,
    "constructor": "롯데건설",
    "heatingType": "지역난방",
    "maxFloor": 32,
    "parkingCount": 3469,
    "latitude": 37.58083,
    "longitude": 126.847816
  },
  {
    "id": 10,
    "aptName": "센트레빌파크",
    "address": "서울특별시 강남구 역삼동 860",
    "buildYear": 2020,
    "households": 1809,
    "constructor": "현대건설",
    "heatingType": "개별난방",
    "maxFloor": 23,
    "parkingCount": 1954,
    "latitude": 37.566797,
    "longitude": 126.919703
  },
  {
    "id": 11,
    "aptName": "센트레빌센트럴",
    "address": "서울특별시 종로구 이촌동 777",
    "buildYear": 2002,
    "households": 742,
    "constructor": "GS건설",
    "heatingType": "개별난방",
    "maxFloor": 13,
    "parkingCount": 883,
    "latitude": 37.620007,
    "longitude": 127.003892
  },
  {
    "id": 12,
    "aptName": "래미안센트럴",
    "address": "서울특별시 수원시 영통구 공덕동 382",
    "buildYear": 2015,
    "households": 2571,
    "constructor": "현대건설",
    "heatingType": "개별난방",
    "maxFloor": 11,
    "parkingCount": 3831,
    "latitude": 37.56872,
    "longitude": 126.858661
  },
  {
    "id": 13,
    "aptName": "디에이치포레",
    "address": "서울특별시 송파구 삼성동 821",
    "buildYear": 2016,
    "households": 1931,
    "constructor": "현대건설",
    "heatingType": "중앙난방",
    "maxFloor": 29,
    "parkingCount": 2897,
    "latitude": 37.481117,
    "longitude": 127.144438
  },
  {
    "id": 14,
    "aptName": "래미안파크",
    "address": "서울특별시 송파구 공덕동 632",
    "buildYear": 2020,
    "households": 2917,
    "constructor": "DL이앤씨",
    "heatingType": "중앙난방",
    "maxFloor": 35,
    "parkingCount": 3471,
    "latitude": 37.624204,
    "longitude": 127.107447
  },
  {
    "id": 15,
    "aptName": "센트레빌센트럴",
    "address": "서울특별시 고양시 일산동구 정자동 743",
    "buildYear": 2009,
    "households": 2410,
    "constructor": "DL이앤씨",
    "heatingType": "지역난방",
    "maxFloor": 22,
    "parkingCount": 3760,
    "latitude": 37.426046,
    "longitude": 127.051082
  },
  {
    "id": 16,
    "aptName": "한신휴플러스1단지",
    "address": "서울특별시 서초구 장항동 566",
    "buildYear": 1996,
    "households": 2061,
    "constructor": "DL이앤씨",
    "heatingType": "지역난방",
    "maxFloor": 15,
    "parkingCount": 2721,
    "latitude": 37.450833,
    "longitude": 127.090891
  },
  {
    "id": 17,
    "aptName": "더샵스퀘어",
    "address": "서울특별시 노원구 정자동 760",
    "buildYear": 2011,
    "households": 1332,
    "constructor": "SK에코플랜트",
    "heatingType": "개별난방",
    "maxFloor": 21,
    "parkingCount": 2051,
    "latitude": 37.499233,
    "longitude": 127.139203
  },
  {
    "id": 18,
    "aptName": "e편한세상3단지",
    "address": "서울특별시 강남구 창신동 448",
    "buildYear": 2020,
    "households": 3162,
    "constructor": "포스코이앤씨",
    "heatingType": "개별난방",
    "maxFloor": 14,
    "parkingCount": 3447,
    "latitude": 37.678635,
    "longitude": 126.957504
  },
  {
    "id": 19,
    "aptName": "롯데캐슬2단지",
    "address": "서울특별시 분당구 창신동 172",
    "buildYear": 2015,
    "households": 2258,
    "constructor": "한화건설",
    "heatingType": "중앙난방",
    "maxFloor": 12,
    "parkingCount": 2393,
    "latitude": 37.641549,
    "longitude": 126.941779
  },
  {
    "id": 20,
    "aptName": "e편한세상",
    "address": "서울특별시 송파구 창신동 712",
    "buildYear": 2018,
    "households": 1594,
    "constructor": "GS건설",
    "heatingType": "지역난방",
    "maxFloor": 43,
    "parkingCount": 2311,
    "latitude": 37.605135,
    "longitude": 127.019511
  },
  {
    "id": 21,
    "aptName": "e편한세상포레",
    "address": "서울특별시 용산구 반포동 937",
    "buildYear": 2014,
    "households": 1162,
    "constructor": "GS건설",
    "heatingType": "중앙난방",
    "maxFloor": 20,
    "parkingCount": 1313,
    "latitude": 37.640942,
    "longitude": 127.090456
  },
  {
    "id": 22,
    "aptName": "래미안센트럴",
    "address": "서울특별시 종로구 성수동 285",
    "buildYear": 2016,
    "households": 2482,
    "constructor": "HDC현대산업개발",
    "heatingType": "개별난방",
    "maxFloor": 11,
    "parkingCount": 3127,
    "latitude": 37.674594,
    "longitude": 126.939338
  },
  {
    "id": 23,
    "aptName": "아이파크2단지",
    "address": "서울특별시 수원시 영통구 반포동 904",
    "buildYear": 1995,
    "households": 1020,
    "constructor": "SK에코플랜트",
    "heatingType": "개별난방",
    "maxFloor": 26,
    "parkingCount": 1040,
    "latitude": 37.675855,
    "longitude": 127.062349
  },
  {
    "id": 24,
    "aptName": "e편한세상",
    "address": "서울특별시 수원시 영통구 성수동 847",
    "buildYear": 1999,
    "households": 2991,
    "constructor": "DL이앤씨",
    "heatingType": "중앙난방",
    "maxFloor": 17,
    "parkingCount": 3888,
    "latitude": 37.491539,
    "longitude": 127.042364
  },
  {
    "id": 25,
    "aptName": "푸르지오포레",
    "address": "서울특별시 강남구 정자동 992",
    "buildYear": 2013,
    "households": 2917,
    "constructor": "GS건설",
    "heatingType": "개별난방",
    "maxFloor": 13,
    "parkingCount": 3530,
    "latitude": 37.627189,
    "longitude": 126.933487
  },
  {
    "id": 26,
    "aptName": "아이파크1단지",
    "address": "서울특별시 송파구 여의도동 968",
    "buildYear": 2001,
    "households": 2403,
    "constructor": "GS건설",
    "heatingType": "지역난방",
    "maxFloor": 11,
    "parkingCount": 3172,
    "latitude": 37.653605,
    "longitude": 126.924353
  },
  {
    "id": 27,
    "aptName": "롯데캐슬2단지",
    "address": "서울특별시 용산구 잠실동 973",
    "buildYear": 2004,
    "households": 1815,
    "constructor": "삼성물산",
    "heatingType": "지역난방",
    "maxFloor": 47,
    "parkingCount": 2033,
    "latitude": 37.673103,
    "longitude": 126.863112
  },
  {
    "id": 28,
    "aptName": "힐스테이트포레",
    "address": "서울특별시 분당구 이촌동 180",
    "buildYear": 2016,
    "households": 2843,
    "constructor": "HDC현대산업개발",
    "heatingType": "지역난방",
    "maxFloor": 11,
    "parkingCount": 3412,
    "latitude": 37.644691,
    "longitude": 126.897573
  },
  {
    "id": 29,
    "aptName": "힐스테이트",
    "address": "서울특별시 마포구 성수동 152",
    "buildYear": 2001,
    "households": 1173,
    "constructor": "HDC현대산업개발",
    "heatingType": "개별난방",
    "maxFloor": 40,
    "parkingCount": 1654,
    "latitude": 37.671735,
    "longitude": 126.91814
  },
  {
    "id": 30,
    "aptName": "더샵센트럴",
    "address": "서울특별시 서초구 정자동 133",
    "buildYear": 2021,
    "households": 2051,
    "constructor": "롯데건설",
    "heatingType": "지역난방",
    "maxFloor": 23,
    "parkingCount": 2584,
    "latitude": 37.62275,
    "longitude": 126.96452
  },
  {
    "id": 31,
    "aptName": "e편한세상2단지",
    "address": "서울특별시 성동구 반포동 996",
    "buildYear": 2008,
    "households": 1709,
    "constructor": "한화건설",
    "heatingType": "중앙난방",
    "maxFloor": 25,
    "parkingCount": 1709,
    "latitude": 37.553165,
    "longitude": 127.080336
  },
  {
    "id": 32,
    "aptName": "푸르지오센트럴",
    "address": "서울특별시 용산구 창신동 282",
    "buildYear": 1995,
    "households": 2550,
    "constructor": "현대건설",
    "heatingType": "개별난방",
    "maxFloor": 30,
    "parkingCount": 2933,
    "latitude": 37.615572,
    "longitude": 127.13084
  },
  {
    "id": 33,
    "aptName": "힐스테이트1단지",
    "address": "서울특별시 분당구 잠실동 205",
    "buildYear": 2017,
    "households": 2267,
    "constructor": "포스코이앤씨",
    "heatingType": "지역난방",
    "maxFloor": 9,
    "parkingCount": 3627,
    "latitude": 37.623964,
    "longitude": 126.946766
  },
  {
    "id": 34,
    "aptName": "아이파크스퀘어",
    "address": "서울특별시 고양시 일산동구 장항동 128",
    "buildYear": 2023,
    "households": 993,
    "constructor": "현대건설",
    "heatingType": "중앙난방",
    "maxFloor": 45,
    "parkingCount": 1241,
    "latitude": 37.635667,
    "longitude": 127.090279
  },
  {
    "id": 35,
    "aptName": "센트레빌",
    "address": "서울특별시 노원구 공덕동 787",
    "buildYear": 1999,
    "households": 546,
    "constructor": "SK에코플랜트",
    "heatingType": "지역난방",
    "maxFloor": 10,
    "parkingCount": 688,
    "latitude": 37.443148,
    "longitude": 127.060915
  },
  {
    "id": 36,
    "aptName": "SK뷰리버뷰",
    "address": "서울특별시 성동구 상계동 269",
    "buildYear": 2013,
    "households": 1680,
    "constructor": "한화건설",
    "heatingType": "중앙난방",
    "maxFloor": 7,
    "parkingCount": 2033,
    "latitude": 37.520228,
    "longitude": 127.028841
  },
  {
    "id": 37,
    "aptName": "자이1단지",
    "address": "서울특별시 분당구 성수동 761",
    "buildYear": 2019,
    "households": 1169,
    "constructor": "대우건설",
    "heatingType": "중앙난방",
    "maxFloor": 13,
    "parkingCount": 1555,
    "latitude": 37.515761,
    "longitude": 126.99308
  },
  {
    "id": 38,
    "aptName": "아이파크포레",
    "address": "서울특별시 노원구 여의도동 528",
    "buildYear": 2009,
    "households": 2813,
    "constructor": "포스코이앤씨",
    "heatingType": "개별난방",
    "maxFloor": 19,
    "parkingCount": 3938,
    "latitude": 37.566789,
    "longitude": 126.860617
  },
  {
    "id": 39,
    "aptName": "힐스테이트2단지",
    "address": "서울특별시 고양시 일산동구 반포동 576",
    "buildYear": 2020,
    "households": 3121,
    "constructor": "포스코이앤씨",
    "heatingType": "지역난방",
    "maxFloor": 33,
    "parkingCount": 4806,
    "latitude": 37.469891,
    "longitude": 127.11073
  },
  {
    "id": 40,
    "aptName": "아이파크3단지",
    "address": "서울특별시 분당구 삼성동 465",
    "buildYear": 2016,
    "households": 780,
    "constructor": "DL이앤씨",
    "heatingType": "중앙난방",
    "maxFloor": 42,
    "parkingCount": 1240,
    "latitude": 37.645817,
    "longitude": 127.071593
  },
  {
    "id": 41,
    "aptName": "힐스테이트3단지",
    "address": "서울특별시 종로구 반포동 903",
    "buildYear": 2008,
    "households": 2017,
    "constructor": "한화건설",
    "heatingType": "지역난방",
    "maxFloor": 16,
    "parkingCount": 3066,
    "latitude": 37.667031,
    "longitude": 126.946934
  },
  {
    "id": 42,
    "aptName": "e편한세상리버뷰",
    "address": "서울특별시 서초구 공덕동 548",
    "buildYear": 2009,
    "households": 2111,
    "constructor": "현대건설",
    "heatingType": "중앙난방",
    "maxFloor": 26,
    "parkingCount": 2702,
    "latitude": 37.663367,
    "longitude": 126.965279
  },
  {
    "id": 43,
    "aptName": "디에이치2단지",
    "address": "서울특별시 강남구 창신동 682",
    "buildYear": 2008,
    "households": 1019,
    "constructor": "SK에코플랜트",
    "heatingType": "중앙난방",
    "maxFloor": 44,
    "parkingCount": 1223,
    "latitude": 37.489741,
    "longitude": 127.154114
  },
  {
    "id": 44,
    "aptName": "센트레빌파크",
    "address": "서울특별시 강남구 반포동 160",
    "buildYear": 2017,
    "households": 2080,
    "constructor": "DL이앤씨",
    "heatingType": "중앙난방",
    "maxFloor": 35,
    "parkingCount": 2371,
    "latitude": 37.666321,
    "longitude": 127.094949
  },
  {
    "id": 45,
    "aptName": "자이센트럴",
    "address": "서울특별시 고양시 일산동구 삼성동 350",
    "buildYear": 2003,
    "households": 2035,
    "constructor": "현대건설",
    "heatingType": "중앙난방",
    "maxFloor": 23,
    "parkingCount": 2116,
    "latitude": 37.494096,
    "longitude": 127.034951
  },
  {
    "id": 46,
    "aptName": "푸르지오파크",
    "address": "서울특별시 마포구 이촌동 391",
    "buildYear": 1999,
    "households": 2197,
    "constructor": "HDC현대산업개발",
    "heatingType": "개별난방",
    "maxFloor": 21,
    "parkingCount": 2373,
    "latitude": 37.619163,
    "longitude": 127.108818
  },
  {
    "id": 47,
    "aptName": "자이파크",
    "address": "서울특별시 종로구 정자동 909",
    "buildYear": 2000,
    "households": 2879,
    "constructor": "DL이앤씨",
    "heatingType": "개별난방",
    "maxFloor": 47,
    "parkingCount": 4347,
    "latitude": 37.518395,
    "longitude": 127.127269
  },
  {
    "id": 48,
    "aptName": "센트레빌센트럴",
    "address": "서울특별시 송파구 삼성동 257",
    "buildYear": 2021,
    "households": 1583,
    "constructor": "현대건설",
    "heatingType": "지역난방",
    "maxFloor": 30,
    "parkingCount": 2343,
    "latitude": 37.435849,
    "longitude": 126.947562
  },
  {
    "id": 49,
    "aptName": "래미안",
    "address": "서울특별시 서초구 장항동 442",
    "buildYear": 2006,
    "households": 260,
    "constructor": "롯데건설",
    "heatingType": "지역난방",
    "maxFloor": 5,
    "parkingCount": 393,
    "latitude": 37.659336,
    "longitude": 126.944402
  },
  {
    "id": 50,
    "aptName": "센트레빌리버뷰",
    "address": "서울특별시 서초구 이촌동 355",
    "buildYear": 2011,
    "households": 1605,
    "constructor": "현대건설",
    "heatingType": "중앙난방",
    "maxFloor": 22,
    "parkingCount": 2263,
    "latitude": 37.471415,
    "longitude": 127.026783
  },
  {
    "id": 51,
    "aptName": "롯데캐슬리버뷰",
    "address": "서울특별시 용산구 삼성동 968",
    "buildYear": 1996,
    "households": 2223,
    "constructor": "대우건설",
    "heatingType": "중앙난방",
    "maxFloor": 24,
    "parkingCount": 2267,
    "latitude": 37.537292,
    "longitude": 127.108694
  },
  {
    "id": 52,
    "aptName": "푸르지오파크",
    "address": "서울특별시 수원시 영통구 반포동 684",
    "buildYear": 2009,
    "households": 2457,
    "constructor": "GS건설",
    "heatingType": "개별난방",
    "maxFloor": 17,
    "parkingCount": 3514,
    "latitude": 37.435357,
    "longitude": 127.036902
  },
  {
    "id": 53,
    "aptName": "센트레빌스퀘어",
    "address": "서울특별시 분당구 잠실동 698",
    "buildYear": 2002,
    "households": 1803,
    "constructor": "DL이앤씨",
    "heatingType": "중앙난방",
    "maxFloor": 11,
    "parkingCount": 1875,
    "latitude": 37.497788,
    "longitude": 127.115114
  },
  {
    "id": 54,
    "aptName": "아이파크파크",
    "address": "서울특별시 성동구 역삼동 549",
    "buildYear": 2004,
    "households": 2036,
    "constructor": "포스코이앤씨",
    "heatingType": "개별난방",
    "maxFloor": 42,
    "parkingCount": 3135,
    "latitude": 37.651282,
    "longitude": 127.06616
  },
  {
    "id": 55,
    "aptName": "푸르지오파크",
    "address": "서울특별시 송파구 잠실동 531",
    "buildYear": 1997,
    "households": 1272,
    "constructor": "대우건설",
    "heatingType": "지역난방",
    "maxFloor": 43,
    "parkingCount": 1692,
    "latitude": 37.591494,
    "longitude": 126.988449
  },
  {
    "id": 56,
    "aptName": "자이2단지",
    "address": "서울특별시 송파구 정자동 29",
    "buildYear": 1995,
    "households": 1005,
    "constructor": "대우건설",
    "heatingType": "중앙난방",
    "maxFloor": 42,
    "parkingCount": 1126,
    "latitude": 37.522707,
    "longitude": 127.103222
  },
  {
    "id": 57,
    "aptName": "롯데캐슬3단지",
    "address": "서울특별시 영등포구 장항동 649",
    "buildYear": 2018,
    "households": 1318,
    "constructor": "삼성물산",
    "heatingType": "지역난방",
    "maxFloor": 23,
    "parkingCount": 1621,
    "latitude": 37.475447,
    "longitude": 126.895383
  },
  {
    "id": 58,
    "aptName": "롯데캐슬3단지",
    "address": "서울특별시 용산구 성수동 925",
    "buildYear": 2007,
    "households": 342,
    "constructor": "삼성물산",
    "heatingType": "개별난방",
    "maxFloor": 12,
    "parkingCount": 472,
    "latitude": 37.645523,
    "longitude": 127.073293
  },
  {
    "id": 59,
    "aptName": "디에이치파크",
    "address": "서울특별시 용산구 상계동 47",
    "buildYear": 2005,
    "households": 1213,
    "constructor": "대우건설",
    "heatingType": "개별난방",
    "maxFloor": 44,
    "parkingCount": 1698,
    "latitude": 37.616887,
    "longitude": 126.822284
  },
  {
    "id": 60,
    "aptName": "SK뷰",
    "address": "서울특별시 서초구 상계동 340",
    "buildYear": 2012,
    "households": 1761,
    "constructor": "포스코이앤씨",
    "heatingType": "개별난방",
    "maxFloor": 34,
    "parkingCount": 2219,
    "latitude": 37.508495,
    "longitude": 127.063838
  },
  {
    "id": 61,
    "aptName": "래미안센트럴",
    "address": "서울특별시 노원구 역삼동 544",
    "buildYear": 2015,
    "households": 2005,
    "constructor": "롯데건설",
    "heatingType": "중앙난방",
    "maxFloor": 26,
    "parkingCount": 2827,
    "latitude": 37.487813,
    "longitude": 127.003032
  },
  {
    "id": 62,
    "aptName": "더샵리버뷰",
    "address": "서울특별시 분당구 역삼동 594",
    "buildYear": 2008,
    "households": 2405,
    "constructor": "대우건설",
    "heatingType": "중앙난방",
    "maxFloor": 8,
    "parkingCount": 3319,
    "latitude": 37.57073,
    "longitude": 126.922419
  },
  {
    "id": 63,
    "aptName": "e편한세상포레",
    "address": "서울특별시 성동구 반포동 589",
    "buildYear": 2012,
    "households": 1231,
    "constructor": "HDC현대산업개발",
    "heatingType": "지역난방",
    "maxFloor": 41,
    "parkingCount": 1293,
    "latitude": 37.463732,
    "longitude": 127.153444
  },
  {
    "id": 64,
    "aptName": "래미안파크",
    "address": "서울특별시 서초구 정자동 251",
    "buildYear": 2024,
    "households": 201,
    "constructor": "한화건설",
    "heatingType": "개별난방",
    "maxFloor": 43,
    "parkingCount": 265,
    "latitude": 37.635659,
    "longitude": 127.168195
  },
  {
    "id": 65,
    "aptName": "푸르지오",
    "address": "서울특별시 수원시 영통구 상계동 977",
    "buildYear": 1997,
    "households": 2400,
    "constructor": "GS건설",
    "heatingType": "개별난방",
    "maxFloor": 20,
    "parkingCount": 3192,
    "latitude": 37.463388,
    "longitude": 127.016166
  },
  {
    "id": 66,
    "aptName": "한신휴플러스스퀘어",
    "address": "서울특별시 서초구 공덕동 30",
    "buildYear": 1995,
    "households": 2261,
    "constructor": "포스코이앤씨",
    "heatingType": "지역난방",
    "maxFloor": 12,
    "parkingCount": 3459,
    "latitude": 37.601835,
    "longitude": 127.094627
  },
  {
    "id": 67,
    "aptName": "e편한세상3단지",
    "address": "서울특별시 종로구 여의도동 353",
    "buildYear": 1999,
    "households": 2482,
    "constructor": "SK에코플랜트",
    "heatingType": "지역난방",
    "maxFloor": 14,
    "parkingCount": 3177,
    "latitude": 37.430237,
    "longitude": 127.080655
  },
  {
    "id": 68,
    "aptName": "래미안센트럴",
    "address": "서울특별시 영등포구 여의도동 753",
    "buildYear": 2007,
    "households": 3095,
    "constructor": "GS건설",
    "heatingType": "지역난방",
    "maxFloor": 25,
    "parkingCount": 3405,
    "latitude": 37.472833,
    "longitude": 127.137984
  },
  {
    "id": 69,
    "aptName": "더샵스퀘어",
    "address": "서울특별시 송파구 성수동 728",
    "buildYear": 2004,
    "households": 724,
    "constructor": "롯데건설",
    "heatingType": "개별난방",
    "maxFloor": 21,
    "parkingCount": 1086,
    "latitude": 37.447186,
    "longitude": 127.032086
  },
  {
    "id": 70,
    "aptName": "아이파크포레",
    "address": "서울특별시 고양시 일산동구 창신동 425",
    "buildYear": 1995,
    "households": 1871,
    "constructor": "DL이앤씨",
    "heatingType": "중앙난방",
    "maxFloor": 19,
    "parkingCount": 1965,
    "latitude": 37.646547,
    "longitude": 127.04206
  },
  {
    "id": 71,
    "aptName": "힐스테이트3단지",
    "address": "서울특별시 고양시 일산동구 이촌동 963",
    "buildYear": 1996,
    "households": 1000,
    "constructor": "대우건설",
    "heatingType": "지역난방",
    "maxFloor": 33,
    "parkingCount": 1310,
    "latitude": 37.507534,
    "longitude": 127.053226
  },
  {
    "id": 72,
    "aptName": "한신휴플러스센트럴",
    "address": "서울특별시 마포구 여의도동 816",
    "buildYear": 2015,
    "households": 1080,
    "constructor": "현대건설",
    "heatingType": "개별난방",
    "maxFloor": 12,
    "parkingCount": 1717,
    "latitude": 37.635784,
    "longitude": 127.05389
  },
  {
    "id": 73,
    "aptName": "더샵2단지",
    "address": "서울특별시 수원시 영통구 이촌동 987",
    "buildYear": 2024,
    "households": 1787,
    "constructor": "한화건설",
    "heatingType": "중앙난방",
    "maxFloor": 42,
    "parkingCount": 2109,
    "latitude": 37.477523,
    "longitude": 126.914228
  },
  {
    "id": 74,
    "aptName": "래미안센트럴",
    "address": "서울특별시 영등포구 잠실동 871",
    "buildYear": 2017,
    "households": 3027,
    "constructor": "롯데건설",
    "heatingType": "중앙난방",
    "maxFloor": 47,
    "parkingCount": 4662,
    "latitude": 37.500818,
    "longitude": 126.827677
  },
  {
    "id": 75,
    "aptName": "래미안센트럴",
    "address": "서울특별시 수원시 영통구 이촌동 665",
    "buildYear": 1999,
    "households": 2235,
    "constructor": "HDC현대산업개발",
    "heatingType": "개별난방",
    "maxFloor": 11,
    "parkingCount": 3509,
    "latitude": 37.676174,
    "longitude": 126.87541
  },
  {
    "id": 76,
    "aptName": "센트레빌1단지",
    "address": "서울특별시 마포구 공덕동 982",
    "buildYear": 2023,
    "households": 1003,
    "constructor": "DL이앤씨",
    "heatingType": "개별난방",
    "maxFloor": 41,
    "parkingCount": 1133,
    "latitude": 37.541809,
    "longitude": 126.920859
  },
  {
    "id": 77,
    "aptName": "자이1단지",
    "address": "서울특별시 강남구 상계동 382",
    "buildYear": 2011,
    "households": 2954,
    "constructor": "대우건설",
    "heatingType": "개별난방",
    "maxFloor": 22,
    "parkingCount": 4047,
    "latitude": 37.438927,
    "longitude": 126.879389
  },
  {
    "id": 78,
    "aptName": "아이파크3단지",
    "address": "서울특별시 송파구 상계동 459",
    "buildYear": 2001,
    "households": 649,
    "constructor": "한화건설",
    "heatingType": "중앙난방",
    "maxFloor": 35,
    "parkingCount": 688,
    "latitude": 37.654356,
    "longitude": 126.990813
  },
  {
    "id": 79,
    "aptName": "아이파크",
    "address": "서울특별시 용산구 정자동 687",
    "buildYear": 2014,
    "households": 2398,
    "constructor": "한화건설",
    "heatingType": "개별난방",
    "maxFloor": 15,
    "parkingCount": 3789,
    "latitude": 37.429251,
    "longitude": 127.057751
  },
  {
    "id": 80,
    "aptName": "더샵1단지",
    "address": "서울특별시 서초구 장항동 261",
    "buildYear": 2002,
    "households": 1120,
    "constructor": "GS건설",
    "heatingType": "지역난방",
    "maxFloor": 42,
    "parkingCount": 1422,
    "latitude": 37.56031,
    "longitude": 126.83184
  },
  {
    "id": 81,
    "aptName": "센트레빌2단지",
    "address": "서울특별시 분당구 삼성동 153",
    "buildYear": 2022,
    "households": 770,
    "constructor": "한화건설",
    "heatingType": "중앙난방",
    "maxFloor": 26,
    "parkingCount": 1201,
    "latitude": 37.425841,
    "longitude": 126.922149
  },
  {
    "id": 82,
    "aptName": "센트레빌1단지",
    "address": "서울특별시 분당구 장항동 173",
    "buildYear": 2011,
    "households": 873,
    "constructor": "HDC현대산업개발",
    "heatingType": "중앙난방",
    "maxFloor": 27,
    "parkingCount": 1310,
    "latitude": 37.440848,
    "longitude": 127.169697
  },
  {
    "id": 83,
    "aptName": "디에이치리버뷰",
    "address": "서울특별시 마포구 이촌동 347",
    "buildYear": 2013,
    "households": 2349,
    "constructor": "대우건설",
    "heatingType": "중앙난방",
    "maxFloor": 31,
    "parkingCount": 3077,
    "latitude": 37.433355,
    "longitude": 127.06941
  },
  {
    "id": 84,
    "aptName": "아이파크2단지",
    "address": "서울특별시 고양시 일산동구 잠실동 170",
    "buildYear": 2005,
    "households": 542,
    "constructor": "한화건설",
    "heatingType": "중앙난방",
    "maxFloor": 31,
    "parkingCount": 808,
    "latitude": 37.609399,
    "longitude": 126.960376
  },
  {
    "id": 85,
    "aptName": "SK뷰리버뷰",
    "address": "서울특별시 서초구 잠실동 658",
    "buildYear": 1997,
    "households": 501,
    "constructor": "현대건설",
    "heatingType": "개별난방",
    "maxFloor": 20,
    "parkingCount": 636,
    "latitude": 37.642926,
    "longitude": 126.853661
  },
  {
    "id": 86,
    "aptName": "아이파크1단지",
    "address": "서울특별시 분당구 창신동 992",
    "buildYear": 1995,
    "households": 1418,
    "constructor": "GS건설",
    "heatingType": "중앙난방",
    "maxFloor": 41,
    "parkingCount": 1999,
    "latitude": 37.563237,
    "longitude": 126.968333
  },
  {
    "id": 87,
    "aptName": "SK뷰스퀘어",
    "address": "서울특별시 용산구 반포동 705",
    "buildYear": 2010,
    "households": 635,
    "constructor": "HDC현대산업개발",
    "heatingType": "개별난방",
    "maxFloor": 48,
    "parkingCount": 806,
    "latitude": 37.635788,
    "longitude": 127.054444
  },
  {
    "id": 88,
    "aptName": "한신휴플러스센트럴",
    "address": "서울특별시 분당구 창신동 295",
    "buildYear": 2001,
    "households": 3110,
    "constructor": "GS건설",
    "heatingType": "지역난방",
    "maxFloor": 44,
    "parkingCount": 4634,
    "latitude": 37.474848,
    "longitude": 127.043877
  },
  {
    "id": 89,
    "aptName": "아이파크3단지",
    "address": "서울특별시 송파구 공덕동 399",
    "buildYear": 2001,
    "households": 271,
    "constructor": "SK에코플랜트",
    "heatingType": "개별난방",
    "maxFloor": 30,
    "parkingCount": 331,
    "latitude": 37.641743,
    "longitude": 126.932993
  },
  {
    "id": 90,
    "aptName": "푸르지오",
    "address": "서울특별시 수원시 영통구 성수동 141",
    "buildYear": 1998,
    "households": 2048,
    "constructor": "GS건설",
    "heatingType": "지역난방",
    "maxFloor": 23,
    "parkingCount": 3011,
    "latitude": 37.43103,
    "longitude": 127.065085
  },
  {
    "id": 91,
    "aptName": "롯데캐슬센트럴",
    "address": "서울특별시 고양시 일산동구 창신동 765",
    "buildYear": 2020,
    "households": 1605,
    "constructor": "한화건설",
    "heatingType": "개별난방",
    "maxFloor": 49,
    "parkingCount": 1621,
    "latitude": 37.563018,
    "longitude": 127.119215
  },
  {
    "id": 92,
    "aptName": "롯데캐슬2단지",
    "address": "서울특별시 종로구 공덕동 937",
    "buildYear": 2008,
    "households": 3114,
    "constructor": "GS건설",
    "heatingType": "지역난방",
    "maxFloor": 33,
    "parkingCount": 3145,
    "latitude": 37.475438,
    "longitude": 127.031013
  },
  {
    "id": 93,
    "aptName": "래미안포레",
    "address": "서울특별시 강남구 정자동 590",
    "buildYear": 2013,
    "households": 892,
    "constructor": "HDC현대산업개발",
    "heatingType": "개별난방",
    "maxFloor": 24,
    "parkingCount": 1240,
    "latitude": 37.517784,
    "longitude": 127.041081
  },
  {
    "id": 94,
    "aptName": "자이센트럴",
    "address": "서울특별시 노원구 잠실동 212",
    "buildYear": 2006,
    "households": 2488,
    "constructor": "SK에코플랜트",
    "heatingType": "개별난방",
    "maxFloor": 18,
    "parkingCount": 3085,
    "latitude": 37.576867,
    "longitude": 127.06415
  },
  {
    "id": 95,
    "aptName": "힐스테이트파크",
    "address": "서울특별시 성동구 성수동 174",
    "buildYear": 1997,
    "households": 1843,
    "constructor": "현대건설",
    "heatingType": "지역난방",
    "maxFloor": 43,
    "parkingCount": 2083,
    "latitude": 37.543479,
    "longitude": 126.856645
  },
  {
    "id": 96,
    "aptName": "푸르지오포레",
    "address": "서울특별시 종로구 삼청동 186",
    "buildYear": 2002,
    "households": 1427,
    "constructor": "포스코이앤씨",
    "heatingType": "중앙난방",
    "maxFloor": 47,
    "parkingCount": 1884,
    "latitude": 37.600778,
    "longitude": 127.15734
  },
  {
    "id": 97,
    "aptName": "롯데캐슬리버뷰",
    "address": "서울특별시 강남구 삼성동 328",
    "buildYear": 1997,
    "households": 217,
    "constructor": "SK에코플랜트",
    "heatingType": "지역난방",
    "maxFloor": 16,
    "parkingCount": 326,
    "latitude": 37.473232,
    "longitude": 126.911382
  },
  {
    "id": 98,
    "aptName": "e편한세상1단지",
    "address": "서울특별시 서초구 방배동 677",
    "buildYear": 2006,
    "households": 1539,
    "constructor": "포스코이앤씨",
    "heatingType": "중앙난방",
    "maxFloor": 37,
    "parkingCount": 1693,
    "latitude": 37.661925,
    "longitude": 127.089346
  },
  {
    "id": 99,
    "aptName": "아이파크",
    "address": "서울특별시 용산구 정자동 510",
    "buildYear": 2014,
    "households": 2861,
    "constructor": "포스코이앤씨",
    "heatingType": "지역난방",
    "maxFloor": 8,
    "parkingCount": 3548,
    "latitude": 37.574661,
    "longitude": 127.100847
  },
  {
    "id": 100,
    "aptName": "래미안센트럴",
    "address": "서울특별시 수원시 영통구 정자동 361",
    "buildYear": 2018,
    "households": 489,
    "constructor": "삼성물산",
    "heatingType": "개별난방",
    "maxFloor": 11,
    "parkingCount": 523,
    "latitude": 37.67406,
    "longitude": 127.154597
  }
]